[{"name":"HALLMARK HEALTH SYSTEM","lat":42.455723,"lon":-71.05901899999998,"county":"Suffolk","total":4813,"emergency":205,"inpatient":288,"urgentcare":0,"outpatient":1705,"ambulatory":2615,"wellness":0},{"name":"LOWELL GENERAL HOSPITAL","lat":42.638893,"lon":-71.32210699999997,"county":"Middlesex","total":3597,"emergency":141,"inpatient":206,"urgentcare":0,"outpatient":982,"ambulatory":2268,"wellness":0},{"name":"CAMBRIDGE HEALTH ALLIANCE","lat":42.375967,"lon":-71.118275,"county":"Suffolk","total":3432,"emergency":114,"inpatient":144,"urgentcare":0,"outpatient":1304,"ambulatory":1870,"wellness":0},{"name":"FALMOUTH HOSPITAL","lat":41.57072,"lon":-70.556682,"county":"Dukes","total":3177,"emergency":120,"inpatient":139,"urgentcare":0,"outpatient":1120,"ambulatory":1798,"wellness":0},{"name":"NEWTON-WELLESLEY HOSPITAL","lat":42.331876,"lon":-71.208402,"county":"Middlesex","total":3055,"emergency":125,"inpatient":169,"urgentcare":0,"outpatient":828,"ambulatory":1933,"wellness":0},{"name":"WINCHESTER HOSPITAL","lat":42.452752,"lon":-71.144319,"county":"Middlesex","total":2540,"emergency":85,"inpatient":94,"urgentcare":0,"outpatient":1033,"ambulatory":1328,"wellness":0},{"name":"MILFORD REGIONAL MEDICAL CENTER","lat":42.158692,"lon":-71.521419,"county":"Worcester","total":2524,"emergency":132,"inpatient":149,"urgentcare":0,"outpatient":722,"ambulatory":1521,"wellness":0},{"name":"MOUNT AUBURN HOSPITAL","lat":42.375967,"lon":-71.118275,"county":"Suffolk","total":2436,"emergency":114,"inpatient":143,"urgentcare":0,"outpatient":692,"ambulatory":1487,"wellness":0},{"name":"NORTH SHORE MEDICAL CENTER -","lat":42.50128,"lon":-70.897502,"county":"Essex","total":2425,"emergency":93,"inpatient":135,"urgentcare":0,"outpatient":807,"ambulatory":1390,"wellness":0},{"name":"HEALTHALLIANCE HOSPITALS  INC","lat":42.520838,"lon":-71.770876,"county":"Worcester","total":2314,"emergency":76,"inpatient":117,"urgentcare":0,"outpatient":916,"ambulatory":1205,"wellness":0},{"name":"GOOD SAMARITAN MEDICAL CENTER","lat":42.082543,"lon":-71.024638,"county":"Plymouth","total":2236,"emergency":89,"inpatient":160,"urgentcare":0,"outpatient":753,"ambulatory":1234,"wellness":0},{"name":"BETH ISRAEL DEACONESS HOSPITAL - PLYMOUTH","lat":41.897892,"lon":-70.62403,"county":"Plymouth","total":2088,"emergency":85,"inpatient":66,"urgentcare":0,"outpatient":590,"ambulatory":1347,"wellness":0},{"name":"STURDY MEMORIAL HOSPITAL","lat":41.931653,"lon":-71.294503,"county":"Bristol","total":2013,"emergency":84,"inpatient":128,"urgentcare":0,"outpatient":603,"ambulatory":1198,"wellness":0},{"name":"BEVERLY HOSPITAL CORPORATION","lat":42.556659,"lon":-70.84496,"county":"Essex","total":1990,"emergency":67,"inpatient":103,"urgentcare":0,"outpatient":722,"ambulatory":1098,"wellness":0},{"name":"BETH ISRAEL DEACONESS HOSPITAL-MILTON INC","lat":42.24158900000001,"lon":-71.082651,"county":"Norfolk","total":1932,"emergency":62,"inpatient":63,"urgentcare":0,"outpatient":752,"ambulatory":1055,"wellness":0},{"name":"SOUTH SHORE HOSPITAL","lat":42.24158900000001,"lon":-71.082651,"county":"Norfolk","total":1829,"emergency":103,"inpatient":79,"urgentcare":0,"outpatient":575,"ambulatory":1072,"wellness":0},{"name":"LAHEY HOSPITAL & MEDICAL CENTER  BURLINGTON","lat":42.503227,"lon":-71.201713,"county":"Middlesex","total":1806,"emergency":94,"inpatient":132,"urgentcare":0,"outpatient":493,"ambulatory":1087,"wellness":0},{"name":"SIGNATURE HEALTHCARE BROCKTON HOSPITAL","lat":42.082543,"lon":-71.024638,"county":"Plymouth","total":1773,"emergency":79,"inpatient":138,"urgentcare":0,"outpatient":257,"ambulatory":1299,"wellness":0},{"name":"NORWOOD HOSPITAL","lat":42.18736,"lon":-71.195955,"county":"Norfolk","total":1743,"emergency":80,"inpatient":84,"urgentcare":0,"outpatient":586,"ambulatory":993,"wellness":0},{"name":"METROWEST MEDICAL CENTER","lat":42.307905,"lon":-71.436196,"county":"Middlesex","total":1712,"emergency":92,"inpatient":96,"urgentcare":0,"outpatient":293,"ambulatory":1231,"wellness":0},{"name":"HOLYOKE MEDICAL CENTER","lat":42.211656,"lon":-72.642448,"county":"Hampden","total":1685,"emergency":74,"inpatient":127,"urgentcare":0,"outpatient":649,"ambulatory":835,"wellness":0},{"name":"Edith Nourse Rogers Memorial Veterans Hospital (Bedford VA)","lat":42.503376,"lon":-71.272644,"county":"Middlesex","total":1673,"emergency":0,"inpatient":7,"urgentcare":0,"outpatient":474,"ambulatory":884,"wellness":308},{"name":"BERKSHIRE MEDICAL CENTER INC - 1","lat":42.452045,"lon":-73.26054,"county":"Berkshire","total":1660,"emergency":118,"inpatient":102,"urgentcare":0,"outpatient":386,"ambulatory":1054,"wellness":0},{"name":"LAWRENCE GENERAL HOSPITAL","lat":42.700273,"lon":-71.161357,"county":"Essex","total":1636,"emergency":95,"inpatient":107,"urgentcare":0,"outpatient":303,"ambulatory":1131,"wellness":0},{"name":"NASHOBA VALLEY MEDICAL CENTER","lat":42.562221,"lon":-71.58484399999998,"county":"Worcester","total":1574,"emergency":47,"inpatient":93,"urgentcare":0,"outpatient":542,"ambulatory":892,"wellness":0},{"name":"SOUTHCOAST HOSPITAL GROUP  INC","lat":41.725351,"lon":-71.094162,"county":"Bristol","total":1556,"emergency":80,"inpatient":102,"urgentcare":0,"outpatient":361,"ambulatory":1013,"wellness":0},{"name":"MARLBOROUGH HOSPITAL","lat":42.349617,"lon":-71.547214,"county":"Worcester","total":1430,"emergency":66,"inpatient":62,"urgentcare":0,"outpatient":487,"ambulatory":815,"wellness":0},{"name":"CAPE COD HOSPITAL","lat":41.748854,"lon":-70.74053599999998,"county":"Plymouth","total":1366,"emergency":68,"inpatient":68,"urgentcare":0,"outpatient":298,"ambulatory":932,"wellness":0},{"name":"SAINT ANNE'S HOSPITAL","lat":41.725351,"lon":-71.094162,"county":"Bristol","total":1347,"emergency":84,"inpatient":120,"urgentcare":0,"outpatient":320,"ambulatory":823,"wellness":0},{"name":"COOLEY DICKINSON HOSPITAL INC THE","lat":42.327044,"lon":-72.67463000000002,"county":"Hampshire","total":1327,"emergency":50,"inpatient":61,"urgentcare":0,"outpatient":524,"ambulatory":692,"wellness":0},{"name":"Haverhill Community Based Outpatient Clinic (CBOC)","lat":42.77449,"lon":-71.07901,"county":"Essex","total":1310,"emergency":0,"inpatient":15,"urgentcare":0,"outpatient":691,"ambulatory":379,"wellness":225},{"name":"BETH ISRAEL DEACONESS HOSPITAL - NEEDHAM","lat":42.281593,"lon":-71.242414,"county":"Norfolk","total":1305,"emergency":56,"inpatient":83,"urgentcare":0,"outpatient":326,"ambulatory":840,"wellness":0},{"name":"Causeway OPC","lat":42.3665,"lon":-71.05931,"county":"Suffolk","total":1299,"emergency":0,"inpatient":14,"urgentcare":0,"outpatient":649,"ambulatory":187,"wellness":449},{"name":"Quincy Outpatient Clinic","lat":42.272617,"lon":-71.03133,"county":"Suffolk","total":1291,"emergency":0,"inpatient":23,"urgentcare":0,"outpatient":760,"ambulatory":162,"wellness":346},{"name":"Lynn Community Based Outpatient Clinic (CBOC)","lat":42.470093,"lon":-70.95994,"county":"Essex","total":1236,"emergency":0,"inpatient":4,"urgentcare":0,"outpatient":551,"ambulatory":296,"wellness":385},{"name":"Worcester Outpatient Clinic","lat":42.297756,"lon":-71.766815,"county":"Worcester","total":1231,"emergency":0,"inpatient":18,"urgentcare":0,"outpatient":634,"ambulatory":131,"wellness":448},{"name":"ADCARE HOSPITAL OF WORCESTER INC","lat":42.269478,"lon":-71.807783,"county":"Worcester","total":1217,"emergency":0,"inpatient":41,"urgentcare":0,"outpatient":545,"ambulatory":631,"wellness":0},{"name":"BOSTON MEDICAL CENTER CORPORATION-","lat":42.33196,"lon":-71.020173,"county":"Suffolk","total":1203,"emergency":28,"inpatient":13,"urgentcare":0,"outpatient":406,"ambulatory":756,"wellness":0},{"name":"MERCY MEDICAL CTR","lat":42.115454,"lon":-72.539978,"county":"Hampden","total":1182,"emergency":66,"inpatient":116,"urgentcare":0,"outpatient":391,"ambulatory":609,"wellness":0},{"name":"MORTON HOSPITAL","lat":41.903323,"lon":-71.094984,"county":"Bristol","total":1169,"emergency":63,"inpatient":101,"urgentcare":0,"outpatient":258,"ambulatory":747,"wellness":0},{"name":"UMASS MEMORIAL MEDICAL CENTER INC","lat":42.269478,"lon":-71.807783,"county":"Worcester","total":1147,"emergency":80,"inpatient":46,"urgentcare":0,"outpatient":371,"ambulatory":650,"wellness":0},{"name":"Worcester Vet Center","lat":42.265556,"lon":-71.818665,"county":"Worcester","total":1126,"emergency":0,"inpatient":16,"urgentcare":0,"outpatient":707,"ambulatory":122,"wellness":281},{"name":"ANNA JAQUES HOSPITAL","lat":42.812141,"lon":-70.886646,"county":"Essex","total":1076,"emergency":53,"inpatient":44,"urgentcare":0,"outpatient":144,"ambulatory":835,"wellness":0},{"name":"HOLY FAMILY HOSPITAL","lat":42.742751,"lon":-71.178588,"county":"Essex","total":1045,"emergency":65,"inpatient":77,"urgentcare":0,"outpatient":200,"ambulatory":703,"wellness":0},{"name":"Framingham Outpatient Clinic","lat":42.28348,"lon":-71.41845,"county":"Middlesex","total":1002,"emergency":0,"inpatient":17,"urgentcare":0,"outpatient":293,"ambulatory":444,"wellness":248},{"name":"NOBLE HOSPITAL","lat":42.138838,"lon":-72.755911,"county":"Hampden","total":997,"emergency":43,"inpatient":73,"urgentcare":0,"outpatient":244,"ambulatory":637,"wellness":0},{"name":"Plymouth Outreach Clinic","lat":41.924313,"lon":-70.656654,"county":"Plymouth","total":973,"emergency":0,"inpatient":8,"urgentcare":0,"outpatient":274,"ambulatory":420,"wellness":271},{"name":"BAYSTATE MEDICAL CENTER","lat":42.115454,"lon":-72.539978,"county":"Hampden","total":970,"emergency":86,"inpatient":62,"urgentcare":0,"outpatient":220,"ambulatory":602,"wellness":0},{"name":"BAYSTATE WING HOSPITAL AND MEDICAL CENTERS","lat":42.187794,"lon":-72.30846899999997,"county":"Hampden","total":954,"emergency":43,"inpatient":111,"urgentcare":0,"outpatient":202,"ambulatory":598,"wellness":0},{"name":"HARRINGTON MEMORIAL HOSPITAL-1","lat":42.059669,"lon":-72.03404,"county":"Worcester","total":924,"emergency":52,"inpatient":79,"urgentcare":0,"outpatient":129,"ambulatory":664,"wellness":0},{"name":"ST VINCENT HOSPITAL","lat":42.269478,"lon":-71.807783,"county":"Worcester","total":924,"emergency":51,"inpatient":59,"urgentcare":0,"outpatient":119,"ambulatory":695,"wellness":0},{"name":"CLINTON HOSPITAL ASSOCIATION","lat":42.411887,"lon":-71.690005,"county":"Worcester","total":901,"emergency":39,"inpatient":48,"urgentcare":0,"outpatient":105,"ambulatory":709,"wellness":0},{"name":"Springfield Outpatient Clinic","lat":42.110065,"lon":-72.60007,"county":"Hampden","total":893,"emergency":0,"inpatient":11,"urgentcare":0,"outpatient":304,"ambulatory":142,"wellness":436},{"name":"SHRINERS' HOSPITAL FOR CHILDREN (THE)","lat":42.115454,"lon":-72.539978,"county":"Hampden","total":849,"emergency":0,"inpatient":80,"urgentcare":0,"outpatient":205,"ambulatory":564,"wellness":0},{"name":"New Bedford Outpatient Clinic","lat":41.635937,"lon":-70.92991,"county":"Bristol","total":818,"emergency":0,"inpatient":8,"urgentcare":0,"outpatient":256,"ambulatory":113,"wellness":441},{"name":"EMERSON HOSPITAL -","lat":42.269478,"lon":-71.807783,"county":"Worcester","total":809,"emergency":47,"inpatient":51,"urgentcare":0,"outpatient":282,"ambulatory":429,"wellness":0},{"name":"VA Boston Healthcare System  Jamaica Plain Campus","lat":42.32809,"lon":-71.11076,"county":"Suffolk","total":766,"emergency":0,"inpatient":7,"urgentcare":0,"outpatient":374,"ambulatory":96,"wellness":289},{"name":"VA Boston Healthcare System  Brockton Campus","lat":42.065655,"lon":-71.05398,"county":"Norfolk","total":691,"emergency":0,"inpatient":6,"urgentcare":0,"outpatient":201,"ambulatory":312,"wellness":172},{"name":"BETH ISRAEL DEACONESS MEDICAL CENTER","lat":42.33196,"lon":-71.020173,"county":"Suffolk","total":677,"emergency":14,"inpatient":17,"urgentcare":0,"outpatient":376,"ambulatory":270,"wellness":0},{"name":"Lowell Vet Center","lat":42.642513,"lon":-71.3062,"county":"Middlesex","total":665,"emergency":0,"inpatient":1,"urgentcare":0,"outpatient":508,"ambulatory":58,"wellness":98},{"name":"Brockton Vet Center","lat":42.055134,"lon":-71.06661,"county":"Norfolk","total":657,"emergency":0,"inpatient":29,"urgentcare":0,"outpatient":301,"ambulatory":107,"wellness":220},{"name":"VA Boston Healthcare System  West Roxbury Campus","lat":42.2793,"lon":-71.1657,"county":"Norfolk","total":653,"emergency":0,"inpatient":15,"urgentcare":0,"outpatient":70,"ambulatory":168,"wellness":400},{"name":"HEYWOOD HOSPITAL -","lat":42.586516,"lon":-71.988062,"county":"Worcester","total":652,"emergency":43,"inpatient":56,"urgentcare":0,"outpatient":110,"ambulatory":443,"wellness":0},{"name":"MASSACHUSETTS GENERAL HOSPITAL","lat":42.33196,"lon":-71.020173,"county":"Suffolk","total":570,"emergency":25,"inpatient":17,"urgentcare":0,"outpatient":342,"ambulatory":186,"wellness":0},{"name":"Lowell Outpatient Clinic","lat":42.62101,"lon":-71.31481,"county":"Middlesex","total":569,"emergency":0,"inpatient":0,"urgentcare":0,"outpatient":250,"ambulatory":219,"wellness":100},{"name":"Fitchburg Outpatient Clinic","lat":42.586487,"lon":-71.80521,"county":"Worcester","total":526,"emergency":0,"inpatient":5,"urgentcare":0,"outpatient":235,"ambulatory":83,"wellness":203},{"name":"Boston Vet Center","lat":42.34461,"lon":-71.03728,"county":"Suffolk","total":517,"emergency":0,"inpatient":3,"urgentcare":0,"outpatient":345,"ambulatory":29,"wellness":140},{"name":"VA Central Western Massachusetts Healthcare System","lat":42.345066,"lon":-72.68291,"county":"Hampshire","total":500,"emergency":0,"inpatient":4,"urgentcare":0,"outpatient":148,"ambulatory":233,"wellness":115},{"name":"FRANCISCAN CHILDREN'S HOSPITAL & REHAB CENTER","lat":42.33196,"lon":-71.020173,"county":"Suffolk","total":497,"emergency":0,"inpatient":29,"urgentcare":0,"outpatient":82,"ambulatory":386,"wellness":0},{"name":"BAYSTATE FRANKLIN MEDICAL CENTER","lat":42.614671,"lon":-72.597063,"county":"Franklin","total":488,"emergency":19,"inpatient":26,"urgentcare":0,"outpatient":85,"ambulatory":358,"wellness":0},{"name":"ATHOL MEMORIAL HOSPITAL","lat":42.593384,"lon":-72.230228,"county":"Franklin","total":485,"emergency":20,"inpatient":33,"urgentcare":0,"outpatient":98,"ambulatory":334,"wellness":0},{"name":"BOSTON CHILDREN'S HOSPITAL","lat":42.33196,"lon":-71.020173,"county":"Suffolk","total":478,"emergency":27,"inpatient":24,"urgentcare":0,"outpatient":241,"ambulatory":186,"wellness":0},{"name":"Hyannis Outpatient Clinic","lat":41.651745,"lon":-70.294235,"county":"Barnstable","total":463,"emergency":0,"inpatient":6,"urgentcare":0,"outpatient":15,"ambulatory":188,"wellness":254},{"name":"NANTUCKET COTTAGE HOSPITAL","lat":41.293416,"lon":-70.10216899999999,"county":"Nantucket","total":462,"emergency":21,"inpatient":32,"urgentcare":0,"outpatient":78,"ambulatory":331,"wellness":0},{"name":"TUFTS MEDICAL CENTER","lat":42.33196,"lon":-71.020173,"county":"Suffolk","total":431,"emergency":27,"inpatient":12,"urgentcare":0,"outpatient":114,"ambulatory":278,"wellness":0},{"name":"SHRINERS' HOSPITAL FOR CHILDREN - BOSTON  THE","lat":42.33196,"lon":-71.020173,"county":"Suffolk","total":431,"emergency":0,"inpatient":31,"urgentcare":0,"outpatient":45,"ambulatory":355,"wellness":0},{"name":"CARNEY HOSPITAL","lat":42.33196,"lon":-71.020173,"county":"Suffolk","total":420,"emergency":20,"inpatient":28,"urgentcare":0,"outpatient":99,"ambulatory":273,"wellness":0},{"name":"PCP9022","lat":42.209151,"lon":-71.683644,"county":"Worcester","total":394,"emergency":0,"inpatient":0,"urgentcare":0,"outpatient":0,"ambulatory":0,"wellness":394},{"name":"Greenfield Outpatient Clinic","lat":42.580627,"lon":-72.623634,"county":"Franklin","total":389,"emergency":0,"inpatient":0,"urgentcare":0,"outpatient":269,"ambulatory":60,"wellness":60},{"name":"Springfield Vet Center","lat":42.139397,"lon":-72.62382,"county":"Hampden","total":380,"emergency":0,"inpatient":6,"urgentcare":0,"outpatient":190,"ambulatory":27,"wellness":157}]